var estaciones={"type":"FeatureCollection","features":[{"type":"Feature","properties":{"name":"Estación Glew"},"geometry":{"type":"Point","coordinates":[-58.38365435600281,-34.888641536920694]}},{"type":"Feature","properties":{"marker-symbol":"","marker-color":"#7e7e7e","marker-size":"medium","name":"Estación Longchamps"},"geometry":{"type":"Point","coordinates":[-58.387205600738525,-34.859462728277336]}},{"type":"Feature","properties":{"marker-color":"#7e7e7e","marker-size":"medium","marker-symbol":"","name":"Estación Burzaco"},"geometry":{"type":"Point","coordinates":[-58.39132010936736,-34.82495852691004]}},{"type":"Feature","properties":{"marker-color":"#7e7e7e","marker-size":"medium","marker-symbol":"","name":"Estación Adrogue"},"geometry":{"type":"Point","coordinates":[-58.39422225952148,-34.79790244098137]}},{"type":"Feature","properties":{"marker-color":"#7e7e7e","marker-size":"medium","marker-symbol":"","name":"Estación Jose Marmol"},"geometry":{"type":"Point","coordinates":[-58.38126182556152,-34.791743881601825]}},{"type":"Feature","properties":{"marker-color":"#7e7e7e","marker-size":"medium","marker-symbol":"","name":"Estación Rafael Calzada"},"geometry":{"type":"Point","coordinates":[-58.35894584655762,-34.79639588311888]}},{"type":"Feature","properties":{"marker-color":"#7e7e7e","marker-size":"medium","marker-symbol":"","name":"Estación Claypole"},"geometry":{"type":"Point","coordinates":[-58.33817481994629,-34.80111810104771]}}]}